stop_id,stop_name,stop_lat,stop_lon,wheelchair_boarding                                                                                               ,download_date
04040,Zaragoza-Delicias,41.658649,-0.911615,1                                                                                                         ,2025-04-09
05102,San Xoán,43.494664,-8.213713,2                                                                                                                  ,2025-04-09
05103,Santa Icía,43.500113,-8.199581,2                                                                                                                ,2025-04-09
05104,Virxe Do Mar,43.496509,-8.204876,2                                                                                                              ,2025-04-09
05105,Piñeiros,43.509526,-8.183968,2                                                                                                                  ,2025-04-09
05106,O Ponto,43.514774,-8.177783,2                                                                                                                   ,2025-04-09
05107,Xuvia,43.517113,-8.161322,2                                                                                                                     ,2025-04-09
05108,O Alto Do Castiñeiro,43.503179,-8.195559,2                                                                                                      ,2025-04-09
05109,Ferrerías,43.527976,-8.150454,2                                                                                                                 ,2025-04-09
05111,Sedes,43.542607,-8.140199,2                                                                                                                     ,2025-04-09
05113,Pedroso De Narón,43.536748,-8.109213,2                                                                                                          ,2025-04-09
05115,San Sadurniño,43.546021,-8.077931,2                                                                                                             ,2025-04-09
05117,Lamas,43.5472900,-8.0492450,2                                                                                                                   ,2025-04-09
05119,Apalla,43.5504630,-8.0186490,2                                                                                                                  ,2025-04-09
05121,Moeche,43.562171,-8.002732,2                                                                                                                    ,2025-04-09
05123,Labacengos,43.56528,-7.980225,2                                                                                                                 ,2025-04-09
05125,Entrambarrías,43.57706,-7.954257,2                                                                                                              ,2025-04-09
05127,Cerdido,43.5872050,-7.9346260,2                                                                                                                 ,2025-04-09
05129,A Cuqueira,43.6078760,-7.9218320,2                                                                                                              ,2025-04-09
05131,Santa Maria De Mera,43.6409800,-7.9161920,2                                                                                                     ,2025-04-09
05133,Pontemera,43.6660730,-7.9026410,2                                                                                                               ,2025-04-09
05135,San Clodio,43.660887,-7.873495,2                                                                                                                ,2025-04-09
05137,Serna,43.668783,-7.8545455,2                                                                                                                    ,2025-04-09
05139,Ortigueira,43.686268,-7.849488,2                                                                                                                ,2025-04-09
05141,Espasante,43.70888,-7.804897,2                                                                                                                  ,2025-04-09
05143,Loiba,43.7303930,-7.7500440,2                                                                                                                   ,2025-04-09
05145,O Barqueiro,43.735649,-7.70288,2                                                                                                                ,2025-04-09
05147,O Vicedo,43.7310260,-7.6732150,2                                                                                                                ,2025-04-09
05149,Mosende,43.706194,-7.635477,2                                                                                                                   ,2025-04-09
05151,Folgueiro,43.692766,-7.635048,2                                                                                                                 ,2025-04-09
05153,Feve-Covas De Viveiro,43.670275,-7.614613,2                                                                                                     ,2025-04-09
05155,Viveiro,43.6569,-7.60033,2                                                                                                                      ,2025-04-09
05156,Viveiro Apdro.,43.6614350,-7.5945320,2                                                                                                          ,2025-04-09
05157,Xuances,43.687991,-7.553904,2                                                                                                                   ,2025-04-09
05159,Xove Pobo,43.683567,-7.510921,2                                                                                                                 ,2025-04-09
05161,Xove,43.681138,-7.495251,2                                                                                                                      ,2025-04-09
05163,Lago,43.687108,-7.481942,2                                                                                                                      ,2025-04-09
05165,Bidueiros,43.696712,-7.468843,2                                                                                                                 ,2025-04-09
05167,San Cibrao,43.692319,-7.44177,2                                                                                                                 ,2025-04-09
05169,Madeiro,43.686219,-7.412863,2                                                                                                                   ,2025-04-09
05171,Burela,43.660607,-7.361183,2                                                                                                                    ,2025-04-09
05173,Cangas De Foz,43.626106,-7.333309,2                                                                                                             ,2025-04-09
05175,Nois,43.610309,-7.312222,2                                                                                                                      ,2025-04-09
05177,Fazouro,43.600457,-7.299843,2                                                                                                                   ,2025-04-09
05179,Marzán,43.57475,-7.26936,2                                                                                                                      ,2025-04-09
05181,Foz,43.560886,-7.272235,2                                                                                                                       ,2025-04-09
05183,Barreiros,43.5473660,-7.2252870,2                                                                                                               ,2025-04-09
05185,Reinante,43.5498700,-7.1743150,2                                                                                                                ,2025-04-09
05187,Esteiro,43.551697,-7.146099,2                                                                                                                   ,2025-04-09
05189,Os Castros,43.55157,-7.130895,2                                                                                                                 ,2025-04-09
05191,Rinlo,43.549761,-7.108645,2                                                                                                                     ,2025-04-09
05193,Ribadeo,43.53607,-7.055572,2                                                                                                                    ,2025-04-09
05197,A Veiga/Vegadeo,43.479667,-7.057327,2                                                                                                           ,2025-04-09
05199,Vilavedeye,43.4905020,-7.0383530,2                                                                                                              ,2025-04-09
05203,Tremañes-Carreño,43.528549,-5.694869,2                                                                                                          ,2025-04-09
05204,Centru De Tresportes,43.531135,-5.706739,2                                                                                                      ,2025-04-09
05207,Aboño Apd,43.5550500,-5.7235900,2                                                                                                               ,2025-04-09
05208,Xibares,43.565927,-5.728723,2                                                                                                                   ,2025-04-09
05209,Perlora,43.5807800,-5.7536800,2                                                                                                                 ,2025-04-09
05210,Candás Apd,43.5865400,-5.7680100,2                                                                                                              ,2025-04-09
05211,Candás,43.584718,-5.772722,2                                                                                                                    ,2025-04-09
05213,El Regueral,43.5804800,-5.7976300,2                                                                                                             ,2025-04-09
05215,San Zabornín,43.5690800,-5.8253300,2                                                                                                            ,2025-04-09
05216,Gudín-Llaminación,43.552295,-5.865382,2                                                                                                         ,2025-04-09
05217,Trasona/Tresona,43.5518000,-5.8743800,2                                                                                                         ,2025-04-09
05219,Llaranes,43.5541500,-5.8970300,2                                                                                                                ,2025-04-09
05220,Cristalería,43.5755430,-5.9293450,2                                                                                                             ,2025-04-09
05221,Avilés Apd,43.554627,-5.917472,2                                                                                                                ,2025-04-09
05224,Raíces Nuevo/La Fundición,43.576334,-5.939915,2                                                                                                 ,2025-04-09
05225,Salinas,43.5703900,-5.9566300,2                                                                                                                 ,2025-04-09
05227,Piedrasblancas,43.556554,-5.975562,2                                                                                                            ,2025-04-09
05229,Vegarrozadas,43.551162,-5.99556,2                                                                                                               ,2025-04-09
05231,Santiagu'l Monte,43.540979,-6.028002,2                                                                                                          ,2025-04-09
05232,El Parador,43.5352400,-6.0705300,2                                                                                                              ,2025-04-09
05233,Sotu'l Barcu,43.5292900,-6.0712400,2                                                                                                            ,2025-04-09
05235,Riberas,43.502742,-6.074331,2                                                                                                                   ,2025-04-09
05237,Peñaullán,43.491163,-6.093979,2                                                                                                                 ,2025-04-09
05239,Santianes,43.503755,-6.091829,2                                                                                                                 ,2025-04-09
05241,Los Cabos,43.5124440,-6.0975140,2                                                                                                               ,2025-04-09
05243,Muros De Nalón,43.542957,-6.111114,2                                                                                                            ,2025-04-09
05244,El Pito-Piñera,43.546893,-6.143335,2                                                                                                            ,2025-04-09
05245,Cudillero,43.550925,-6.151968,2                                                                                                                 ,2025-04-09
05247,Villademar,43.557065,-6.155477,2                                                                                                                ,2025-04-09
05249,La Magdalena,43.559309,-6.184922,2                                                                                                              ,2025-04-09
05251,San Martín De Luiña,43.5447530,-6.2287020,2                                                                                                     ,2025-04-09
05253,San Cosme,43.544069,-6.248091,2                                                                                                                 ,2025-04-09
05255,Soto De Luiña,43.559635,-6.234369,2                                                                                                             ,2025-04-09
05257,Valdredo,43.56638,-6.263234,2                                                                                                                   ,2025-04-09
05259,Novellana,43.557795,-6.289593,2                                                                                                                 ,2025-04-09
05261,Santa Marina,43.552674,-6.305181,2                                                                                                              ,2025-04-09
05263,Ballota,43.5507160,-6.3228120,2                                                                                                                 ,2025-04-09
05265,Tablizu,43.5472530,-6.3512250,2                                                                                                                 ,2025-04-09
05267,Cadavéu,43.542952,-6.391612,2                                                                                                                   ,2025-04-09
05269,San Cristuébanu,43.547225,-6.415264,2                                                                                                           ,2025-04-09
05271,Caneiru,43.541913,-6.445878,2                                                                                                                   ,2025-04-09
05273,Barcia,43.546813,-6.50828,2                                                                                                                     ,2025-04-09
05275,Luarca/L.luarca,43.537949,-6.536617,2                                                                                                           ,2025-04-09
05277,Outur,43.540541,-6.593562,2                                                                                                                     ,2025-04-09
05279,Villapedre,43.546723,-6.64587,2                                                                                                                 ,2025-04-09
05281,Piñera-Villaoril,43.535685,-6.685414,2                                                                                                          ,2025-04-09
05283,Navia,43.536802,-6.719425,2                                                                                                                     ,2025-04-09
05285,Medal,43.545692,-6.752994,2                                                                                                                     ,2025-04-09
05287,Lloza,43.551254,-6.771675,2                                                                                                                     ,2025-04-09
05289,Cartavio,43.550714,-6.789622,2                                                                                                                  ,2025-04-09
05291,A Caridá,43.547074,-6.827541,2                                                                                                                  ,2025-04-09
05293,Tapia,43.535026,-6.909329,2                                                                                                                     ,2025-04-09
05295,Tol,43.527204,-6.952128,2                                                                                                                       ,2025-04-09
05297,Les Campes,43.5202979,-6.9771022,2                                                                                                              ,2025-04-09
05299,Castropol,43.5095861,-7.0147697,2                                                                                                               ,2025-04-09
05300,El Vallobín,43.3653000,-5.8649000,2                                                                                                             ,2025-04-09
05301,L'argañosa - Llapiés,43.365832,-5.870018,2                                                                                                      ,2025-04-09
05302,As Campas,43.3638300,-5.8834600,2                                                                                                               ,2025-04-09
05303,Les Maces,43.3586700,-5.8975600,2                                                                                                               ,2025-04-09
05304,San Claudio/San Cloyo,43.355333,-5.917811,2                                                                                                     ,2025-04-09
05306,San Pedru Nora,43.3687400,-5.9588000,2                                                                                                          ,2025-04-09
05308,Sotu-Udrión,43.3557070,-5.9653520,2                                                                                                             ,2025-04-09
05311,Trubia,43.3485300,-5.9676500,2                                                                                                                  ,2025-04-09
05313,Santa María Grau,43.3837900,-5.9826300,2                                                                                                        ,2025-04-09
05315,Veiga D'anzu,43.3893500,-6.0058600,2                                                                                                            ,2025-04-09
05316,Peñaflor,43.402931,-6.045405,2                                                                                                                  ,2025-04-09
05317,Grau/Grado,43.3945300,-6.0637200,2                                                                                                              ,2025-04-09
05319,Sandiche,43.425605,-6.05996,2                                                                                                                   ,2025-04-09
05320,Aces,43.4399280,-6.0657890,2                                                                                                                    ,2025-04-09
05321,San Román,43.4489560,-6.0772830,2                                                                                                               ,2025-04-09
05323,Beifar,43.4700840,-6.0988770,2                                                                                                                  ,2025-04-09
05325,Pravia,43.4909700,-6.1106200,2                                                                                                                  ,2025-04-09
05327,San Ranón,43.5164940,-6.0820650,2                                                                                                               ,2025-04-09
05329,San Esteban,43.552084,-6.087238,2                                                                                                               ,2025-04-09
05361,Baíña,43.274515,-5.828206,2                                                                                                                     ,2025-04-09
05369,Mieres Del Camín-El Vasco,43.2502800,-5.7799900,2                                                                                               ,2025-04-09
05371,Santuyano-Caudalia,43.22628,-5.783320,2                                                                                                         ,2025-04-09
05373,Figareo,43.2139570,-5.7839830,2                                                                                                                 ,2025-04-09
05375,Uxo-Taruelo,43.2006000,-5.7876500,2                                                                                                             ,2025-04-09
05376,Santa Cruz,43.1959450,-5.7775460,2                                                                                                              ,2025-04-09
05377,Caborana,43.1760210,-5.7547090,2                                                                                                                ,2025-04-09
05379,Morea/Moreda,43.1707800,-5.7418920,2                                                                                                            ,2025-04-09
05380,San Antonio,43.1688900,-5.6967710,2                                                                                                             ,2025-04-09
05381,L'oyanco,43.1665400,-5.7217800,2                                                                                                                ,2025-04-09
05382,Corigos,43.1642800,-5.6766600,2                                                                                                                 ,2025-04-09
05383,Piñeres,43.1659700,-5.6842500,2                                                                                                                 ,2025-04-09
05384,Santana-Soto,43.16478,-5.646112,2                                                                                                               ,2025-04-09
05385,Cabañaquinta/Cabanaquinta,43.1608300,-5.6249100,2                                                                                               ,2025-04-09
05387,L.levinco,43.151098,-5.600266,2                                                                                                                 ,2025-04-09
05389,Col.lanzo,43.124043,-5.566384,2                                                                                                                 ,2025-04-09
05403,Tremañes-Llangréu/Langreo,43.528766,-5.694847,2                                                                                                 ,2025-04-09
05405,Sotiello,43.507289,-5.726564,2                                                                                                                  ,2025-04-09
05407,Pinzales,43.4865850,-5.7196960,2                                                                                                                ,2025-04-09
05409,Aguda,43.46603,-5.72606,2                                                                                                                       ,2025-04-09
05410,Xixún,43.370778,-5.69338,2                                                                                                                      ,2025-04-09
05411,La Florida,43.4345900,-5.7100000,2                                                                                                              ,2025-04-09
05412,Puente Buracos,43.4481100,-5.7173900,2                                                                                                          ,2025-04-09
05413,Noreña,43.3939800,-5.7037100,2                                                                                                                  ,2025-04-09
05415,Bendición,43.3633710,-5.6803400,2                                                                                                               ,2025-04-09
05416,Valdesoto,43.3584160,-5.6585900,2                                                                                                               ,2025-04-09
05417,Carbayín,43.3511680,-5.6347560,2                                                                                                                ,2025-04-09
05420,Curuxona,43.339403,-5.63081,2                                                                                                                   ,2025-04-09
05421,Tiuya/Tuilla,43.328069,-5.643052,2                                                                                                              ,2025-04-09
05425,La Felguera-Vega,43.3105200,-5.6859000,2                                                                                                        ,2025-04-09
05429,Sama-Los Llerones,43.298761,-5.683358,2                                                                                                         ,2025-04-09
05431,Ciañu,43.290721,-5.667903,2                                                                                                                     ,2025-04-09
05432,San Vicente,43.28911,-5.65285,2                                                                                                                 ,2025-04-09
05433,L'entregu-La Escura,43.289509,-5.640809,2                                                                                                       ,2025-04-09
05435,Carrocera,43.28774,-5.62637,2                                                                                                                   ,2025-04-09
05436,Samartín,43.278378,-5.615305,2                                                                                                                  ,2025-04-09
05437,Sotrondio,43.2757800,-5.6048100,2                                                                                                               ,2025-04-09
05439,Blimea,43.2708200,-5.5903000,2                                                                                                                  ,2025-04-09
05441,Los Barreros/Barredos,43.2598700,-5.5750400,2                                                                                                   ,2025-04-09
05443,La Pola De Llaviana/Pola De Laviana,43.2506800,-5.5644900,2                                                                                     ,2025-04-09
05451,Bilbao La Concordia,43.259998,-2.926286,2                                                                                                       ,2025-04-09
05455,Basurto Hospital,43.259754,-2.953828,2                                                                                                          ,2025-04-09
05457,Feve-Zorroza Zorrozgoiti,43.273951,-2.974167,2                                                                                                  ,2025-04-09
05459,Santa Agueda,43.261854,-2.973004,2                                                                                                              ,2025-04-09
05460,Kastrexana,43.255361,-2.972073,2                                                                                                                ,2025-04-09
05461,Irauregui,43.248317,-2.990089,2                                                                                                                 ,2025-04-09
05463,Zaramillo,43.2332250,-3.0160370,2                                                                                                               ,2025-04-09
05465,La Quadra,43.222712,-3.024874,2                                                                                                                 ,2025-04-09
05467,Sodupe,43.202057,-3.050494,2                                                                                                                    ,2025-04-09
05469,Artxube,43.201091,-3.071677,2                                                                                                                   ,2025-04-09
05470,Lambarri,43.205985,-3.08262,2                                                                                                                   ,2025-04-09
05471,Güeñes,43.20908,-3.095381,2                                                                                                                     ,2025-04-09
05473,Aranguren,43.210494,-3.109354,2                                                                                                                 ,2025-04-09
05474,Aranguren/Apdro.,43.210347,-3.114075,2                                                                                                          ,2025-04-09
05475,Zalla,43.212797,-3.133284,2                                                                                                                     ,2025-04-09
05477,Colegio,43.2108840,-3.1387030,2                                                                                                                 ,2025-04-09
05479,Ibarra,43.2039570,-3.1448310,2                                                                                                                  ,2025-04-09
05481,La Herrera,43.2034521,-3.1705687,2                                                                                                              ,2025-04-09
05483,Balmaseda,43.196388,-3.189924,2                                                                                                                 ,2025-04-09
05484,Mimetiz,43.2132627,-3.1352774,1                                                                                                                 ,2025-04-09
05485,La Calzada,43.190121,-3.197160,2                                                                                                                ,2025-04-09
05487,Traslaviña,43.23329,-3.198304,2                                                                                                                 ,2025-04-09
05489,Arzentales,43.2500000,-3.2200000,2                                                                                                              ,2025-04-09
05493,Villaverde De Trucios,43.2412800,-3.2505400,2                                                                                                   ,2025-04-09
05497,Karranza,43.238854,-3.357827,2                                                                                                                  ,2025-04-09
05504,Parque Principado,43.3868100,-5.8088900,2                                                                                                       ,2025-04-09
05505,Colloto/Cualloto,43.3794400,-5.7922500,2                                                                                                        ,2025-04-09
05507,Meres,43.3807153,-5.7488323,2                                                                                                                   ,2025-04-09
05508,Fonciello,43.3817019,-5.7296665,2                                                                                                               ,2025-04-09
05509,El Berrón,43.3825250,-5.7026550,2                                                                                                               ,2025-04-09
05511,La Carrera,43.386909,-5.675275,2                                                                                                                ,2025-04-09
05513,La Pola Siero,43.388113,-5.664779,2                                                                                                             ,2025-04-09
05515,Los Corros,43.376828,-5.601385,2                                                                                                                ,2025-04-09
05517,Lieres,43.38058,-5.582573,2                                                                                                                     ,2025-04-09
05521,El Remediu,43.375076,-5.546238,2                                                                                                                ,2025-04-09
05522,Llames,43.3687800,-5.5256600,2                                                                                                                  ,2025-04-09
05523,Nava,43.3611700,-5.5092900,2                                                                                                                    ,2025-04-09
05525,Fuentesanta/Huentesanta,43.3554700,-5.4782400,2                                                                                                 ,2025-04-09
05527,Ceceda/Cecea,43.3561800,-5.4511700,2                                                                                                            ,2025-04-09
05529,Carancos,43.355586,-5.434425,2                                                                                                                  ,2025-04-09
05531,Pintueles,43.3614480,-5.3874960,2                                                                                                               ,2025-04-09
05533,L'infiestu,43.351777,-5.36921,2                                                                                                                 ,2025-04-09
05534,L'infiestu Apd,43.3438950,-5.3572830,2                                                                                                          ,2025-04-09
05535,Villamayor,43.3631000,-5.3028500,2                                                                                                              ,2025-04-09
05537,Sebares,43.3623600,-5.2574000,2                                                                                                                 ,2025-04-09
05539,Sotu,43.3583000,-5.2268900,2                                                                                                                    ,2025-04-09
05541,Ozanes,43.368395,-5.185191,2                                                                                                                    ,2025-04-09
05542,Policlínicu,43.3786220,-5.1860300,2                                                                                                             ,2025-04-09
05543,Arriondas/Les Arriondes,43.387513,-5.188258,2                                                                                                   ,2025-04-09
05545,H.uentes,43.401443,-5.143117,2                                                                                                                  ,2025-04-09
05547,Torañu,43.412281,-5.118013,2                                                                                                                    ,2025-04-09
05549,Cueves,43.4311440,-5.0733020,2                                                                                                                  ,2025-04-09
05551,Lloviu,43.4405630,-5.0555920,2                                                                                                                  ,2025-04-09
05553,Ribadesella/Ribeseya,43.4594500,-5.0545000,2                                                                                                    ,2025-04-09
05555,Camangu,43.4482100,-5.0188200,2                                                                                                                 ,2025-04-09
05557,Belmonte,43.4398000,-4.9822800,2                                                                                                                ,2025-04-09
05559,Nueva,43.440585,-4.935531,2                                                                                                                     ,2025-04-09
05561,Villahormes,43.4420099,-4.9038300,2                                                                                                             ,2025-04-09
05563,Posada,43.4248300,-4.8650000,2                                                                                                                  ,2025-04-09
05565,Valmori,43.4214700,-4.8358300,2                                                                                                                 ,2025-04-09
05567,Celoriu,43.4250100,-4.8113300,2                                                                                                                 ,2025-04-09
05569,Po,43.4242900,-4.7818900,2                                                                                                                      ,2025-04-09
05571,Llanes,43.4209400,-4.7587000,2                                                                                                                  ,2025-04-09
05573,San Roque L'acebal,43.3947300,-4.7301300,2                                                                                                      ,2025-04-09
05575,Vidiago,43.3964700,-4.6730000,2                                                                                                                 ,2025-04-09
05577,Pendueles,43.3928300,-4.6303900,2                                                                                                               ,2025-04-09
05579,Colombres,43.3827200,-4.5570900,2                                                                                                               ,2025-04-09
05602,Valdecilla La Marga,43.452804,-3.828602,2                                                                                                       ,2025-04-09
05603,Cazoña,43.455249,-3.841491,2                                                                                                                    ,2025-04-09
05604,Adarzo,43.453465,-3.85579,2                                                                                                                     ,2025-04-09
05605,Bezana,43.4409900,-3.8996100,2                                                                                                                  ,2025-04-09
05607,Mortera,43.435207,-3.918223,2                                                                                                                   ,2025-04-09
05609,Boo De Piélago,43.4316340,-3.9464320,2                                                                                                          ,2025-04-09
05611,Mogro,43.4250400,-3.9607600,2                                                                                                                   ,2025-04-09
05613,Gornazo,43.409638,-3.988686,2                                                                                                                   ,2025-04-09
05615,Mar,43.398343,-4.010047,2                                                                                                                       ,2025-04-09
05617,Requejada,43.3913700,-4.0279800,2                                                                                                               ,2025-04-09
05619,Barreda,43.37424,-4.04187,2                                                                                                                     ,2025-04-09
05620,Altamira,43.3536040,-4.0606090,2                                                                                                                ,2025-04-09
05621,Torrelavega/Centro,43.35093,-4.051009,2                                                                                                         ,2025-04-09
05622,Ganzo,43.356546,-4.070291,2                                                                                                                     ,2025-04-09
05623,Puente San Miguel,43.3586380,-4.0877570,2                                                                                                       ,2025-04-09
05625,Santa Isabel De Quijas,43.3589770,-4.1118650,2                                                                                                  ,2025-04-09
05627,San Pedro De Rudagüera,43.361127,-4.149519,2                                                                                                    ,2025-04-09
05629,Golbardo,43.3408710,-4.1555960,2                                                                                                                ,2025-04-09
05631,Casar De Periedo,43.3387700,-4.1747300,2                                                                                                        ,2025-04-09
05633,Virgen De La Peña,43.323142,-4.193685,2                                                                                                         ,2025-04-09
05635,Ontoria,43.3152500,-4.2155400,2                                                                                                                 ,2025-04-09
05637,Cabezón De La Sal,43.3077700,-4.2319600,2                                                                                                       ,2025-04-09
05641,Treceño,43.3182800,-4.3090200,2                                                                                                                 ,2025-04-09
05643,Roiz,43.3282100,-4.3492700,2                                                                                                                    ,2025-04-09
05644,El Barcenal,43.340347,-4.383335,2                                                                                                               ,2025-04-09
05645,San Vicente De La Barquera,43.367837,-4.404504,2                                                                                                ,2025-04-09
05647,Pesúes,43.370289,-4.480174,2                                                                                                                    ,2025-04-09
05649,Unquera,43.3747800,-4.5143400,2                                                                                                                 ,2025-04-09
05651,Nueva Montaña,43.440103,-3.849398,2                                                                                                             ,2025-04-09
05652,Valle Real,43.427513,-3.840498,2                                                                                                                ,2025-04-09
05655,Maliaño La Vidriera,43.416083,-3.841081,2                                                                                                       ,2025-04-09
05657,Astillero,43.4037100,-3.8212500,2                                                                                                               ,2025-04-09
05658,La Cantábrica,43.397296,-3.814914,2                                                                                                             ,2025-04-09
05659,San Salvador,43.393758,-3.803777,2                                                                                                              ,2025-04-09
05661,Heras,43.401139,-3.766305,2                                                                                                                     ,2025-04-09
05663,Orejo,43.399487,-3.737923,2                                                                                                                     ,2025-04-09
05665,Solares,43.3874800,-3.7313100,2                                                                                                                 ,2025-04-09
05667,Ceceñas,43.376441,-3.717872,2                                                                                                                   ,2025-04-09
05669,La Cavada,43.350589,-3.706766,2                                                                                                                 ,2025-04-09
05671,Liérganes,43.3448200,-3.7421200,2                                                                                                               ,2025-04-09
05672,Puente Agüero,43.406489,-3.719342,2                                                                                                             ,2025-04-09
05673,Villaverde De Pontones,43.411322,-3.703643,2                                                                                                    ,2025-04-09
05675,Hoz De Anero,43.404885,-3.666883,2                                                                                                              ,2025-04-09
05677,Beranga,43.4137100,-3.5771300,2                                                                                                                 ,2025-04-09
05679,Gama,43.4231500,-3.5247200,2                                                                                                                    ,2025-04-09
05681,Cicero,43.4170520,-3.4904900,2                                                                                                                  ,2025-04-09
05683,Treto,43.3940900,-3.4692000,2                                                                                                                   ,2025-04-09
05685,Limpias,43.3588100,-3.4333400,2                                                                                                                 ,2025-04-09
05687,Marrón,43.34661,-3.420918,2                                                                                                                     ,2025-04-09
05689,Udalla,43.3136800,-3.4454900,2                                                                                                                  ,2025-04-09
05691,Gibaja,43.2821900,-3.4383100,2                                                                                                                  ,2025-04-09
05721,Arla-Berrón,43.1666990,-3.2275890,2                                                                                                             ,2025-04-09
05722,Ungo Nava,43.1428940,-3.2647160,2                                                                                                               ,2025-04-09
05724,Mercadillo-Villasana,43.1052090,-3.2644690,2                                                                                                    ,2025-04-09
05727,Cadagua,43.0681710,-3.3473390,2                                                                                                                 ,2025-04-09
05730,Bercedo Montija,43.0884790,-3.4560000,2                                                                                                         ,2025-04-09
05731,Quintana De Los Prados,43.0800000,-3.5100000,2                                                                                                  ,2025-04-09
05732,Espinosa De Los Monteros,43.0742520,-3.5371160,2                                                                                                ,2025-04-09
05733,Redondo,43.0629930,-3.6078950,2                                                                                                                 ,2025-04-09
05734,Sotoscueva,43.0452920,-3.6882530,2                                                                                                              ,2025-04-09
05735,Pedrosa,43.0123670,-3.7378520,2                                                                                                                 ,2025-04-09
05736,Dosante Cidad,43.0012500,-3.7452500,2                                                                                                           ,2025-04-09
05737,Robredo Ahedo,43.0190940,-3.8092310,2                                                                                                           ,2025-04-09
05738,Soncillo,43.005809,-3.844888,2                                                                                                                  ,2025-04-09
05739,Cabañas De Virtus,42.996397,-3.858466,2                                                                                                         ,2025-04-09
05740,Arija,42.9912920,-3.9450060,2                                                                                                                   ,2025-04-09
05741,Llano,42.9880620,-3.9823570,2                                                                                                                   ,2025-04-09
05742,Feve-Las Rozas De Valdearroyo,42.9736050,-4.0298640,2                                                                                           ,2025-04-09
05743,Montes Claros,42.9343230,-4.0500730,2                                                                                                           ,2025-04-09
05744,Los Carabeos,42.9103290,-4.0752110,2                                                                                                            ,2025-04-09
05747,Cillamayor,42.8577520,-4.2791780,2                                                                                                              ,2025-04-09
05748,Salinas De Pisuerga,42.8512710,-4.3862090,2                                                                                                     ,2025-04-09
05749,Vado Cervera,42.8393600,-4.4947700,2                                                                                                            ,2025-04-09
05750,Castrejón De La Peña,42.8119900,-4.6016200,2                                                                                                    ,2025-04-09
05751,Villaverde Tarilonte,42.8183530,-4.6854190,2                                                                                                    ,2025-04-09
05752,Santibañez De La Peña,42.8020400,-4.7414500,2                                                                                                   ,2025-04-09
05753,Guardo/Apdro.,42.7877600,-4.8451920,2                                                                                                           ,2025-04-09
05754,Guardo,42.7910800,-4.8520100,2                                                                                                                  ,2025-04-09
05755,La Llama De La Guzpeña,42.7702740,-5.0412990,2                                                                                                  ,2025-04-09
05756,La Espina,42.787317,-4.905185,2                                                                                                                 ,2025-04-09
05757,Valcuende,42.7656200,-4.9292100,2                                                                                                               ,2025-04-09
05758,Puente Almuhey,42.78764,-4.971911,2                                                                                                             ,2025-04-09
05759,Prado De La Guzpeña,42.7838799,-5.0264800,2                                                                                                     ,2025-04-09
05760,Valle De Las Casas,42.7677800,-5.0711100,2                                                                                                      ,2025-04-09
05761,Cistierna,42.8031400,-5.1307600,2                                                                                                               ,2025-04-09
05762,Yugueros,42.809817,-5.180063,2                                                                                                                  ,2025-04-09
05763,La Ercina,42.8086800,-5.2140870,2                                                                                                               ,2025-04-09
05764,Barrillos,42.812364,-5.283128,2                                                                                                                 ,2025-04-09
05765,Feve-La Losilla,42.838561,-5.318151,2                                                                                                           ,2025-04-09
05766,Boñar,42.862759,-5.328534,2                                                                                                                     ,2025-04-09
05767,La Vecilla,42.855095,-5.412162,2                                                                                                                ,2025-04-09
05768,Aviados,42.854774,-5.442816,2                                                                                                                   ,2025-04-09
05769,La Valcueva,42.84966,-5.486957,2                                                                                                                ,2025-04-09
05770,Matallana,42.841068,-5.522135,2                                                                                                                 ,2025-04-09
05771,Pardavé,42.806349,-5.508186,2                                                                                                                   ,2025-04-09
05772,Pedrún,42.791013,-5.506954,2                                                                                                                    ,2025-04-09
05773,Manzaneda,42.754603,-5.51641,2                                                                                                                  ,2025-04-09
05774,Garrafe,42.734502,-5.52421,2                                                                                                                    ,2025-04-09
05775,Palazuelo,42.707132,-5.533764,2                                                                                                                 ,2025-04-09
05776,San Feliz,42.682301,-5.537782,2                                                                                                                 ,2025-04-09
05777,Villaquilambre,42.6469340,-5.5540460,2                                                                                                          ,2025-04-09
05778,Feve-León,42.6023200,-5.5750400,2                                                                                                               ,2025-04-09
05784,Hospitales,42.61262,-5.56985,2                                                                                                                  ,2025-04-09
05785,Villasinta,42.657554,-5.549298,2                                                                                                                ,2025-04-09
05786,Matueca De Torio,42.771532,-5.51194,2                                                                                                           ,2025-04-09
05787,Naredo De Fenar,42.833441,-5.523002,2                                                                                                           ,2025-04-09
05788,Robles,42.840743,-5.507292,2                                                                                                                    ,2025-04-09
05789,Campohermoso,42.855941,-5.42872,2                                                                                                               ,2025-04-09
05790,Sorriba,42.786278,-5.127479,2                                                                                                                   ,2025-04-09
05793,La Mata De La Riba,42.858578,-5.339645,2                                                                                                        ,2025-04-09
05794,La Raya,42.629108,-5.561383,2                                                                                                                   ,2025-04-09
05795,Feve-Otero,42.859568,-5.389983,2                                                                                                                ,2025-04-09
05796,Villa Romana,42.629111,-5.561338,2                                                                                                              ,2025-04-09
05797,Valdepiélago,42.8650500,-5.4032170,2                                                                                                            ,2025-04-09
05798,La Devesa,42.820148,-5.302187,2                                                                                                                 ,2025-04-09
05799,Cerezal De La Guzpeña,42.7798340,-5.0058510,2                                                                                                   ,2025-04-09
05801,Ventas/S.mamés,42.6096999,-5.5718483,2                                                                                                          ,2025-04-09
05803,La Asunción/Universidad,42.615821,-5.566379,2                                                                                                   ,2025-04-09
05805,Barrio De Las Ollas,42.858586,-5.339549,2                                                                                                       ,2025-04-09
05807,Valderilla,42.717641,-5.530277,2                                                                                                                ,2025-04-09
05951,Feve-Cartagena Plaza Bastarreche,37.603575,-0.977029,2                                                                                          ,2025-04-09
05952,Hospital,37.60529,-0.960681,2                                                                                                                   ,2025-04-09
05953,Media Legua,37.607888,-0.953643,2                                                                                                               ,2025-04-09
05955,Vista Alegre,37.609294,-0.944179,2                                                                                                              ,2025-04-09
05957,El Abrevadero,37.609727,-0.931259,2                                                                                                             ,2025-04-09
05959,Alumbres,37.609929,-0.914841,2                                                                                                                  ,2025-04-09
05961,La Esperanza,37.613793,-0.891342,2                                                                                                              ,2025-04-09
05963,La Unión Vieja,37.615466,-0.881629,2                                                                                                            ,2025-04-09
05965,La Unión,37.615673,-0.875217,2                                                                                                                  ,2025-04-09
05967,Sierra Minera,37.61985,-0.864864,2                                                                                                              ,2025-04-09
05969,Llano Del Beal,37.626055,-0.83621,2                                                                                                             ,2025-04-09
05971,El Estrecho,37.627603,-0.829591,2                                                                                                               ,2025-04-09
05973,Los Nietos Viejos,37.646924,-0.791485,2                                                                                                         ,2025-04-09
05975,Los Nietos Pescadería,37.649354,-0.787864,2                                                                                                     ,2025-04-09
05977,Los Nietos,37.651839,-0.796983,2                                                                                                                ,2025-04-09
06002,Alhama De Murcia,37.8493837,-1.4145055,2                                                                                                        ,2025-04-09
06003,Totana,37.7635101,-1.4956127,2                                                                                                                  ,2025-04-09
06005,Lorca-San Diego (apd),37.6805717,-1.6858944,2                                                                                                   ,2025-04-09
06006,Lorca Sutullena,37.6725714,-1.6959002,2                                                                                                         ,2025-04-09
06007,Puerto Lumbreras (apt),37.5809194,-1.731775,2                                                                                                   ,2025-04-09
06100,Almendricos,37.4748912,-1.7796447,2                                                                                                             ,2025-04-09
07001,Pulpi (apd),37.3999194,-1.7501361,2                                                                                                             ,2025-04-09
07003,Jaravia (apd),37.3925027,-1.693175,2                                                                                                            ,2025-04-09
07004,águilas,37.4098333,-1.5725777,2                                                                                                                 ,2025-04-09
07007,águilas El Labradorcico,37.4119055,-1.5859138,2                                                                                                 ,2025-04-09
10000,Madrid-Principe Pio,40.4215361,-3.7190805,1                                                                                                     ,2025-04-09
10001,Aravaca (apd-Cgd),40.4484027,-3.7855512,2                                                                                                       ,2025-04-09
10002,Pozuelo,40.4473443,-3.8002865,2                                                                                                                 ,2025-04-09
10005,Las Rozas (apd),40.4942255,-3.8681086,2                                                                                                         ,2025-04-09
10007,Majadahond,40.4742448,-3.8452712,2                                                                                                              ,2025-04-09
10010,El Barrial,40.4653336,-3.8078526,2                                                                                                              ,2025-04-09
10100,Pinar De Las Rozas,40.5222566,-3.8822585,2                                                                                                      ,2025-04-09
10101,Las Matas,40.5523275,-3.8967651,2                                                                                                               ,2025-04-09
10103,Torrelodones,40.5745499,-3.9565955,2                                                                                                            ,2025-04-09
10104,Galapagar-La Navata,40.6002664,-3.9822646,2                                                                                                     ,2025-04-09
10200,Villalba De Guadarrama,40.6265067,-4.0081871,1                                                                                                  ,2025-04-09
10201,San Yago,40.6178786,-4.0312349,2                                                                                                                ,2025-04-09
10202,Las Zorreras-Navalquejigo,40.6092725,-4.0463634,2                                                                                               ,2025-04-09
10203,El Escorial,40.5852811,-4.1324479,2                                                                                                             ,2025-04-09
10204,Zarzalejo,40.538710,-4.158180,2                                                                                                                 ,2025-04-09
10205,Robledo De Chavela,40.520802,-4.246774,2                                                                                                        ,2025-04-09
10206,Santa María De La Alameda-Peguerinos,40.568937,-4.269332,2                                                                                      ,2025-04-09
10207,Las Navas Del Marqués,40.5892050,-4.3622590,2                                                                                                   ,2025-04-09
10208,Navalperal,40.5911520,-4.4083820,2                                                                                                              ,2025-04-09
10209,El Pimpollar,40.5675870,-4.2835410,2                                                                                                            ,2025-04-09
10300,Herradón-La Cañada,40.5992750,-4.4950390,2                                                                                                      ,2025-04-09
10302,Guimorcondo,40.6490620,-4.6149870,2                                                                                                             ,2025-04-09
10400,ávila,40.6572550,-4.6833120,1                                                                                                                   ,2025-04-09
10409,Arévalo,41.0471230,-4.7019880,2                                                                                                                 ,2025-04-09
10500,Medina Del Campo,41.3176170,-4.9099230,1                                                                                                        ,2025-04-09
10600,Valladolid,41.6421670,-4.7269860,1                                                                                                              ,2025-04-09
11000,Venta De Baños,41.9173600,-4.4958440,2                                                                                                          ,2025-04-09
11004,Magaz,41.9765610,-4.4321140,2                                                                                                                   ,2025-04-09
11006,Quintana Del Puente,42.0799740,-4.1985800,2                                                                                                     ,2025-04-09
11009,Villaquirán,42.2157170,-3.9993960,2                                                                                                             ,2025-04-09
11014,Burgos Rosa Manzano,42.3711970,-3.6663080,1                                                                                                     ,2025-04-09
11109,Briviesca,42.5427650,-3.3192870,2                                                                                                               ,2025-04-09
11200,Miranda De Ebro,42.6910240,-2.9403660,1                                                                                                         ,2025-04-09
11203,Manzanos,42.7428990,-2.8675010,2                                                                                                                ,2025-04-09
11204,La Puebla De Arganzón,42.7652450,-2.8303850,2                                                                                                   ,2025-04-09
11205,Nanclares/Langraiz,42.8162160,-2.8049420,2                                                                                                      ,2025-04-09
11208,Vitoria/Gasteiz,42.8415170,-2.6726010,1                                                                                                         ,2025-04-09
11210,Alegría De álava-Dulantzi,42.8487230,-2.5146680,2                                                                                               ,2025-04-09
11212,Salvatierra/Agurain,42.8464300,-2.3892100,2                                                                                                     ,2025-04-09
11213,Araia,42.8695990,-2.3068070,2                                                                                                                   ,2025-04-09
11300,Altsasu/Alsasua-Estación,42.8948470,-2.1812370,2                                                                                                ,2025-04-09
11305,Brinkola-Oñati,43.019887,-2.334469,2                                                                                                            ,2025-04-09
11306,Legazpi,43.0509115,-2.330735,2                                                                                                                  ,2025-04-09
11400,Zumarraga,43.088273,-2.318462,2                                                                                                                 ,2025-04-09
11402,Ormaiztegi,43.040151,-2.255831,2                                                                                                                ,2025-04-09
11404,Beasain,43.046174,-2.203234,2                                                                                                                   ,2025-04-09
11405,Ordizia/Ordicia,43.052583,-2.181019,2                                                                                                           ,2025-04-09
11406,Itsasondo(apd),43.068955,-2.162736,2                                                                                                            ,2025-04-09
11407,Legorreta,43.0854918,-2.1409783,2                                                                                                               ,2025-04-09
11408,Ikazteguieta (apd),43.0941733,-2.1254914,2                                                                                                      ,2025-04-09
11409,Alegia,43.1016781,-2.0969546,2                                                                                                                  ,2025-04-09
11500,Tolosa,43.1354047,-2.0789084,2                                                                                                                  ,2025-04-09
11501,Tolosa Centro,43.139368,-2.074105,2                                                                                                             ,2025-04-09
11502,Anoeta,43.1627674,-2.0704202,2                                                                                                                  ,2025-04-09
11503,Villabona-Zizurkil,43.189391,-2.055641,2                                                                                                        ,2025-04-09
11504,Andoain Centro/Erdia,43.214729,-2.020394,2                                                                                                      ,2025-04-09
11505,Andoain,43.221715,-2.016357,2                                                                                                                   ,2025-04-09
11506,Urnieta,43.2475119,-1.9910169,2                                                                                                                 ,2025-04-09
11507,Hernani-Centro,43.2669561,-1.9720551,2                                                                                                          ,2025-04-09
11508,Hernani,43.272283,-1.964175,2                                                                                                                   ,2025-04-09
11509,Martutene,43.2991826,-1.9560858,2                                                                                                               ,2025-04-09
11510,Loiola,43.304772,-1.964289,2                                                                                                                    ,2025-04-09
11511,San Sebastián/Donostia,43.317669,-1.976704,1                                                                                                    ,2025-04-09
11512,Gros,43.322077,-1.972632,2                                                                                                                      ,2025-04-09
11513,Ategorrieta (apd),43.3204096,-1.9601454,2                                                                                                       ,2025-04-09
11514,Herrera (apd),43.319255,-1.9370283,2                                                                                                            ,2025-04-09
11515,Pasaia,43.3188088,-1.9172992,2                                                                                                                  ,2025-04-09
11516,Lezo-Errenteria,43.3158311,-1.8995674,2                                                                                                         ,2025-04-09
11518,Ventas De Irun,43.331008,-1.816203,2                                                                                                            ,2025-04-09
11522,Intxaurrondo,43.3199405,-1.9521976,2                                                                                                            ,2025-04-09
11600,Irun,43.339582,-1.800192,1                                                                                                                      ,2025-04-09
12001,Los Negrales,40.6385681,-4.0220307,2                                                                                                            ,2025-04-09
12002,Alpedrete-Mataespesa,40.6580931,-4.0350813,2                                                                                                    ,2025-04-09
12004,Collado Mediano,40.6927600,-4.0359164,2                                                                                                         ,2025-04-09
12005,Los Molinos-Guadarrama,40.7066368,-4.0673999,2                                                                                                  ,2025-04-09
12006,Cercedilla,40.7375282,-4.0664502,2                                                                                                              ,2025-04-09
12007,Tablada,40.7056480,-4.1253100,2                                                                                                                 ,2025-04-09
12008,Gudillos,40.7169140,-4.1576810,2                                                                                                                ,2025-04-09
12009,San Rafael,40.7149440,-4.1814300,2                                                                                                              ,2025-04-09
12010,El Espinar,40.7408520,-4.1894820,2                                                                                                              ,2025-04-09
12011,Los ángeles De San Rafael,40.7779090,-4.2069330,2                                                                                               ,2025-04-09
12012,Otero-Herreros,40.8009700,-4.2035040,2                                                                                                          ,2025-04-09
12013,Ortigosa Del Monte,40.8327710,-4.1680940,2                                                                                                      ,2025-04-09
12014,Navas De Riofrío- La Losa,40.8566730,-4.1411030,2                                                                                               ,2025-04-09
12100,Segovia,40.9340300,-4.1136500,2                                                                                                                 ,2025-04-09
13100,Orduña,42.994971,-3.014669,2                                                                                                                    ,2025-04-09
13101,Amurrio,43.0491713,-3.0020722,2                                                                                                                 ,2025-04-09
13102,Salbio,43.0741356,-2.9995663,2                                                                                                                  ,2025-04-09
13103,Luiaondo,43.093554,-2.999662,2                                                                                                                  ,2025-04-09
13104,Santa Cruz De Llodio,43.132448,-2.970197,2                                                                                                      ,2025-04-09
13106,Llodio,43.142721,-2.959916,2                                                                                                                    ,2025-04-09
13107,Areta,43.1452861,-2.943658,2                                                                                                                    ,2025-04-09
13108,Arbide,43.159117,-2.929893,2                                                                                                                    ,2025-04-09
13109,Arrankudiaga (apd),43.1689773,-2.9190924,2                                                                                                      ,2025-04-09
13110,Ugao-Miraballes,43.1790634,-2.9024461,2                                                                                                         ,2025-04-09
13111,Arrigorriaga,43.2099341,-2.8881877,2                                                                                                            ,2025-04-09
13112,Basauri (apd),43.226952,-2.888881,2                                                                                                             ,2025-04-09
13113,Bidebieta-Basauri,43.2371937,-2.8896703,2                                                                                                       ,2025-04-09
13114,Ollargan,43.2418885,-2.9171895,2                                                                                                                ,2025-04-09
13115,Bakiola,43.176332,-2.909743,2                                                                                                                   ,2025-04-09
13116,Iñarratxu,43.035813,-3.003876,2                                                                                                                 ,2025-04-09
13117,Arakaldo,43.154817,-2.938893,2                                                                                                                  ,2025-04-09
13118,Abaroa-Sm,43.2258013,-2.8879643,2                                                                                                               ,2025-04-09
13119,La Peña,43.239764,-2.923413,2                                                                                                                   ,2025-04-09
13120,Miribilla,43.2505005,-2.9312131,2                                                                                                               ,2025-04-09
13121,Amurrio Iparralde,43.0582385,-2.9961898,2                                                                                                       ,2025-04-09
13200,Bilbao-Abando Indalecio Prieto,43.259609,-2.92915,1                                                                                             ,2025-04-09
13205,Zabalburu,43.256752,-2.932127,2                                                                                                                 ,2025-04-09
13206,Ametzola,43.2543574,-2.9437469,2                                                                                                                ,2025-04-09
13207,Autonomia,43.257784,-2.94615,2                                                                                                                  ,2025-04-09
13208,S. Mames,43.261825,-2.948816,2                                                                                                                  ,2025-04-09
13303,Olabeaga,43.264166,-2.957191,2                                                                                                                  ,2025-04-09
13304,Zorrotza,43.277780,-2.972117,2                                                                                                                  ,2025-04-09
13305,Lutxana,43.288106,-2.975335,2                                                                                                                   ,2025-04-09
13400,Barakaldo,43.300475,-2.984948,2                                                                                                                 ,2025-04-09
13401,Sestao,43.3084226,-2.9965427,2                                                                                                                  ,2025-04-09
13402,La Iberia (apd),43.311861,-3.00425,2                                                                                                            ,2025-04-09
13403,Portugalete,43.318728,-3.015567,2                                                                                                               ,2025-04-09
13404,Peñota,43.3261451,-3.0240161,2                                                                                                                  ,2025-04-09
13405,Santurtzi,43.3286719,-3.0302259,2                                                                                                               ,2025-04-09
13501,Galindo,43.3040808,-3.0106763,2                                                                                                                 ,2025-04-09
13502,Trapaga,43.3027972,-3.0176313,2                                                                                                                 ,2025-04-09
13503,Valle De Trapaga/Trapagaran,43.307763,-3.039786,2                                                                                               ,2025-04-09
13504,Ortuella,43.3116466,-3.0602285,2                                                                                                                ,2025-04-09
13505,Putxeta,43.31623,-3.089951,2                                                                                                                    ,2025-04-09
13506,Muskiz,43.321472,-3.112317,2                                                                                                                    ,2025-04-09
13507,Urioste,43.3074738,-3.0411834,2                                                                                                                 ,2025-04-09
13508,Gallarta (apd),43.3192486,-3.0676331,2                                                                                                          ,2025-04-09
13509,Sagrada F.,43.308212,-3.052896,2                                                                                                                ,2025-04-09
14200,Mataporquera,42.8709010,-4.1654060,2                                                                                                            ,2025-04-09
14202,Reinosa,42.995158,-4.139917,2                                                                                                                   ,2025-04-09
14203,Lantueno-Santiurde,43.064618,-4.086294,2                                                                                                        ,2025-04-09
14204,Pesquera,43.083718,-4.079594,2                                                                                                                  ,2025-04-09
14206,Bárcena,43.130561,-4.056662,2                                                                                                                   ,2025-04-09
14207,Molledo-Portolín,43.146897,-4.043563,2                                                                                                          ,2025-04-09
14208,Santa Cruz De Iguña,43.167067,-4.048194,2                                                                                                       ,2025-04-09
14209,Las Fraguas,43.194318,-4.057394,2                                                                                                               ,2025-04-09
14210,Los Corrales De Buelna,43.257961,-4.064679,2                                                                                                    ,2025-04-09
14211,Las Caldas De Besaya,43.295518,-4.075294,2                                                                                                      ,2025-04-09
14212,Viernoles,43.327437,-4.042475,2                                                                                                                 ,2025-04-09
14213,Torrelavega/Tanos,43.33974,-4.02896,2                                                                                                           ,2025-04-09
14214,Sierrapando,43.347118,-3.991694,2                                                                                                               ,2025-04-09
14215,Zurita,43.357826,-3.979697,2                                                                                                                    ,2025-04-09
14216,Renedo,43.355636,-3.953732,2                                                                                                                    ,2025-04-09
14217,Parbayón,43.375214,-3.90092,2                                                                                                                   ,2025-04-09
14218,Guarnizo,43.398271,-3.850226,2                                                                                                                  ,2025-04-09
14219,Boo,43.404295,-3.8432,2                                                                                                                         ,2025-04-09
14220,Maliaño,43.41664,-3.841901,2                                                                                                                    ,2025-04-09
14221,Muriedas,43.4265260,-3.8482400,2                                                                                                                ,2025-04-09
14223,Santander,43.458575,-3.811223,1                                                                                                                 ,2025-04-09
14230,Valdecilla,43.450492,-3.838889,2                                                                                                                ,2025-04-09
14231,Nueva Montaña,43.445244,-3.846303,2                                                                                                             ,2025-04-09
14232,Lombera,43.276219,-4.071153,2                                                                                                                   ,2025-04-09
14233,Río Ebro,43.025658,-4.097112,2                                                                                                                  ,2025-04-09
14234,Pujayo,43.123726,-4.08172,2                                                                                                                     ,2025-04-09
14235,Arenas De Iguña,43.186618,-4.054394,2                                                                                                           ,2025-04-09
14236,Vioño,43.360717,-3.964874,2                                                                                                                     ,2025-04-09
14237,Muriedas-Bahía,43.435311,-3.850821,2                                                                                                            ,2025-04-09
15118,Fierros,43.07152,-5.769496,2                                                                                                                    ,2025-04-09
15119,La Frecha,43.09722,-5.797896,2                                                                                                                  ,2025-04-09
15120,Campumanes,43.11112,-5.814196,2                                                                                                                 ,2025-04-09
15121,La Cobertoria,43.130231,-5.812825,2                                                                                                             ,2025-04-09
15122,Pola De Lena/La Pola,43.158942,-5.831075,2                                                                                                      ,2025-04-09
15123,Vil.layana,43.186778,-5.803633,2                                                                                                                ,2025-04-09
15200,Uxo,43.20702,-5.791496,1                                                                                                                        ,2025-04-09
15202,Santuyano,43.214944,-5.785817,2                                                                                                                 ,2025-04-09
15203,Mieres Del Camín,43.2500266,-5.7822622,1                                                                                                        ,2025-04-09
15205,Ablaña,43.267493,-5.804693,2                                                                                                                    ,2025-04-09
15206,La Perea,43.277234,-5.812279,2                                                                                                                  ,2025-04-09
15207,Olloniego/Lluniego,43.29622,-5.819295,2                                                                                                         ,2025-04-09
15208,Soto Rei/Soto De Rey,43.30762,-5.856895,2                                                                                                       ,2025-04-09
15209,Les Segaes/Las Segadas De Abajo,43.312842,-5.86918,2                                                                                            ,2025-04-09
15210,El Caleyu,43.33042,-5.868395,2                                                                                                                  ,2025-04-09
15211,Oviedo/Uviéu,43.366841,-5.854263,1                                                                                                              ,2025-04-09
15212,Lugones/Llugones,43.40347,-5.812935,1                                                                                                           ,2025-04-09
15217,La Corredoria,43.3881080,-5.8272527,1                                                                                                           ,2025-04-09
15218,Llamaquique,43.355864,-5.855475,1                                                                                                               ,2025-04-09
15300,Lugo De Llanera,43.445519,-5.817438,1                                                                                                           ,2025-04-09
15301,Villabona,43.46082,-5.825595,2                                                                                                                  ,2025-04-09
15302,Serín,43.50482,-5.780395,2                                                                                                                      ,2025-04-09
15303,Montiana,43.527578,-5.735516,2                                                                                                                  ,2025-04-09
15305,Tabladiello,43.474597,-5.802526,2                                                                                                               ,2025-04-09
15400,Veriña,43.54092,-5.725018,2                                                                                                                     ,2025-04-09
15401,La Calzada,43.534132,-5.70981,2                                                                                                                 ,2025-04-09
15410,Gijón/Xixón,43.5377329,-5.6758089,1                                                                                                             ,2025-04-09
16001,Santolaya,43.31742,-5.812495,1                                                                                                                  ,2025-04-09
16002,Veguín,43.33152,-5.772595,2                                                                                                                     ,2025-04-09
16005,Peñarrubia,43.32212,-5.722295,2                                                                                                                 ,2025-04-09
16006,Barros,43.3178079,-5.7109228,1                                                                                                                  ,2025-04-09
16008,La Felguera,43.304594,-5.692439,2                                                                                                               ,2025-04-09
16009,Sama,43.291503,-5.679332,2                                                                                                                      ,2025-04-09
16010,Ciañu,43.289192,-5.66793,2                                                                                                                      ,2025-04-09
16011,L'entregu/El Entrego,43.2872372,-5.6479229,1                                                                                                    ,2025-04-09
16301,Ferroñes,43.475556,-5.861372,2                                                                                                                  ,2025-04-09
16302,Cancienes,43.51582,-5.869095,2                                                                                                                  ,2025-04-09
16400,Nubledo/Nubleo,43.52212,-5.869295,2                                                                                                             ,2025-04-09
16401,Villalegre,43.536871,-5.896108,2                                                                                                                ,2025-04-09
16402,La Rocica,43.5467,-5.9052,2                                                                                                                     ,2025-04-09
16403,Avilés,43.561191,-5.922576,2                                                                                                                    ,2025-04-09
16405,San Xuan,43.58952,-5.932595,1                                                                                                                   ,2025-04-09
16408,Los Campos,43.536675,-5.885115,2                                                                                                                ,2025-04-09
17000,Madrid-Chamartín-Clara Campoamor,40.4720993,-3.6824687,1                                                                                        ,2025-04-09
17001,Fuencarral (apt),40.5015242,-3.6824808,2                                                                                                        ,2025-04-09
17003,El Goloso (apd),40.5587539,-3.7139504,2                                                                                                         ,2025-04-09
17004,Tres Cantos (apt),40.5985252,-3.7155822,2                                                                                                       ,2025-04-09
17005,Colmenar Viejo,40.6451853,-3.7765198,2                                                                                                          ,2025-04-09
17009,Universidad Canto Blanco,40.5438226,-3.7001834,1                                                                                                ,2025-04-09
18000,Madrid - Atocha Cercanías,40.4061556,-3.6889579,1                                                                                               ,2025-04-09
18001,Madrid-Recoletos,40.4234123,-3.6908535,2                                                                                                        ,2025-04-09
18002,Madrid-Nuevos Ministerios,40.4466171,-3.6923408,1                                                                                               ,2025-04-09
18003,M.alvaro-P,40.3956167,-3.6777094,2                                                                                                              ,2025-04-09
18004,Delicias,40.4003715,-3.692763,2                                                                                                                 ,2025-04-09
18005,Pirámides,40.4025917,-3.7113344,2                                                                                                               ,2025-04-09
18101,Madrid-Sol,40.4168778,-3.7032107,2                                                                                                              ,2025-04-09
19001,U.p.comill,40.554058,-3.683335,1                                                                                                                ,2025-04-09
19002,Valdelasfu,40.5474433,-3.6543338,1                                                                                                              ,2025-04-09
19003,Alcob.sseb,40.546566,-3.6351819,1                                                                                                               ,2025-04-09
21010,Ferrol,43.4880349,-8.2311430,1                                                                                                                  ,2025-04-09
30000,Monfragüe-Plasencia,39.9374640,-6.1009100,2                                                                                                     ,2025-04-09
30002,Plasencia,40.0222820,-6.0993970,2                                                                                                               ,2025-04-09
35001,Leganés,40.3286349,-3.7711552,2                                                                                                                 ,2025-04-09
35002,Fuenlabrada,40.2833747,-3.7994538,2                                                                                                             ,2025-04-09
35005,Illescas,40.1208800,-3.8422620,2                                                                                                                ,2025-04-09
35009,Zarzaquemada,40.3406009,-3.7482111,2                                                                                                            ,2025-04-09
35010,La Serna,40.2967500,-3.7926450,2                                                                                                                ,2025-04-09
35011,P.polvoran,40.3125398,-3.7835135,2                                                                                                              ,2025-04-09
35012,Humanes,40.2556903,-3.8286016,2                                                                                                                 ,2025-04-09
35105,Torrijos,39.9790030,-4.2830370,2                                                                                                                ,2025-04-09
35109,Montearagón,39.9609960,-4.6470930,2                                                                                                             ,2025-04-09
35200,Talavera De La Reina,39.9706740,-4.8265120,2                                                                                                    ,2025-04-09
35203,Oropesa De Toledo,39.9217460,-5.1861370,2                                                                                                       ,2025-04-09
35206,Navalmoral De La Mata,39.8949130,-5.5456070,2                                                                                                   ,2025-04-09
35400,Cáceres,39.4611310,-6.3856790,1                                                                                                                 ,2025-04-09
35600,Madrid-Aluche,40.3856315,-3.7607442,2                                                                                                           ,2025-04-09
35601,Maestra Justa Freire Polideportivo Aluch,40.3836517,-3.7685682,2                                                                                ,2025-04-09
35602,Las Aguilas,40.3811836,-3.7802739,2                                                                                                             ,2025-04-09
